{"markers":[{"lat":28.5473333,"lng":77.3102107,"title":"Vermont Site 1","add":"Vermont, New york","contactno":"Contact No 1"},{"lat":28.5969943,"lng":77.3865,"title":"New jersey Site 2","add":"New jersey, New york","contactno":"Contact No 2"},{"lat":28.52969943,"lng":77.31865,"title":"New york Site 3","add":"New york","contactno":"Contact No 3"},{"lat":28.54969943,"lng":77.34865,"title":"Ohio Site 4","add":"Ohio, New York","contactno":"Contact No 4"},{"lat":28.56969943,"lng":77.37865,"title":"Maine Site 5","add":"Maine, New York ","contactno":"Contact No 5"}]}